$GPGGA,065830.000,2109.5263,N,07247.0864,E,1,6,1.33,97.6,M,-61.3,M,,*46
$GPGSA,A,3,07,30,10,28,09,23,,,,,,,1.64,1.33,0.96*08
$GPGSV,4,1,13,09,82,174,19,23,49,148,19,07,46,351,17,19,44,070,*75
$GPGSV,4,2,13,28,34,253,27,30,29,316,26,10,24,262,16,11,24,136,*7D
$GPGSV,4,3,13,27,20,045,,04,08,123,,01,07,148,,03,05,174,*79
$GPGSV,4,4,13,193,,,*40
$GPRMC,065830.000,A,2109.5263,N,07247.0864,E,1.13,271.58,240515,,,A*6F
$GPGGA,065831.000,2109.5265,N,07247.0863,E,1,6,1.33,97.5,M,-61.3,M,,*45
$GPGSA,A,3,07,30,10,28,09,23,,,,,,,1.64,1.33,0.96*08
$GPGSV,4,1,13,09,82,174,19,23,49,148,19,07,46,351,16,19,44,070,*74
$GPGSV,4,2,13,28,34,253,27,30,29,316,25,10,24,262,15,11,24,136,*7D
$GPGSV,4,3,13,27,20,045,,04,08,123,,01,07,148,,03,05,174,*79
$GPGSV,4,4,13,193,,,*40
$GPRMC,065831.000,A,2109.5265,N,07247.0863,E,1.07,280.09,240515,,,A*60
$GPGGA,065832.000,2109.5266,N,07247.0860,E,1,6,1.33,97.4,M,-61.3,M,,*47
$GPGSA,A,3,07,30,10,28,09,23,,,,,,,1.64,1.33,0.96*08
$GPGSV,4,1,13,09,82,174,20,23,49,148,18,07,46,351,16,19,44,070,*7F
$GPGSV,4,2,13,28,34,253,27,30,29,316,17,10,24,262,16,11,24,136,*7F
$GPGSV,4,3,13,27,20,045,,04,08,123,,01,07,148,,03,05,174,*79
$GPGSV,4,4,13,193,,,*40
$GPRMC,065832.000,A,2109.5266,N,07247.0860,E,1.08,281.69,240515,,,A*6B
$GPGGA,065833.000,2109.5266,N,07247.0856,E,1,6,1.33,97.3,M,-61.3,M,,*44
$GPGSA,A,3,07,30,10,28,09,23,,,,,,,1.64,1.33,0.96*08
$GPGSV,4,1,13,09,82,174,20,23,49,148,18,07,46,351,15,19,44,070,*7C
$GPGSV,4,2,13,28,34,253,27,30,29,316,18,10,24,262,17,11,24,136,*71
$GPGSV,4,3,13,27,20,045,,04,08,123,,01,07,148,,03,05,174,*79
$GPGSV,4,4,13,193,,,*40
$GPRMC,065833.000,A,2109.5266,N,07247.0856,E,1.33,280.62,240515,,,A*6D
$GPGGA,065834.000,2109.5266,N,07247.0854,E,1,6,1.33,97.3,M,-61.3,M,,*41
$GPGSA,A,3,07,30,10,28,09,23,,,,,,,1.64,1.33,0.96*08
$GPGSV,4,1,13,09,82,174,20,23,49,148,18,07,46,351,15,19,44,070,*7C
$GPGSV,4,2,13,28,34,253,27,30,29,316,20,10,24,262,17,11,24,136,*7A
$GPGSV,4,3,13,27,20,045,,04,08,123,,01,07,148,,03,05,174,*79
$GPGSV,4,4,13,193,,,*40
$GPRMC,065834.000,A,2109.5266,N,07247.0854,E,1.36,279.89,240515,,,A*6E
$GPGGA,065835.000,2109.5267,N,07247.0850,E,1,6,1.33,97.2,M,-61.3,M,,*44
$GPGSA,A,3,07,30,10,28,09,23,,,,,,,1.64,1.33,0.96*08
$GPGSV,4,1,13,09,82,174,20,23,49,148,18,07,46,351,15,19,44,069,*74
$GPGSV,4,2,13,28,34,253,27,30,29,316,22,10,24,262,17,11,24,136,*78
$GPGSV,4,3,13,27,20,045,,04,08,123,,01,07,148,,03,05,174,*79
$GPGSV,4,4,13,193,,,*40
$GPRMC,065835.000,A,2109.5267,N,07247.0850,E,1.41,277.52,240515,,,A*62
$GPGGA,065836.000,2109.5275,N,07247.0847,E,1,6,1.33,97.2,M,-61.3,M,,*42
$GPGSA,A,3,07,30,10,28,09,23,,,,,,,1.64,1.33,0.96*08
$GPGSV,4,1,13,09,82,174,21,23,49,148,18,07,46,351,15,19,44,069,*75
$GPGSV,4,2,13,28,34,253,27,30,29,316,24,10,24,262,17,11,24,136,*7E
$GPGSV,4,3,13,27,20,045,,04,08,123,,01,07,148,,03,05,174,*79
$GPGSV,4,4,13,193,,,*40
$GPRMC,065836.000,A,2109.5275,N,07247.0847,E,1.38,292.01,240515,,,A*67
$GPGGA,065837.000,2109.5277,N,07247.0845,E,1,6,1.33,97.1,M,-61.3,M,,*40
$GPGSA,A,3,07,30,10,28,09,23,,,,,,,1.64,1.33,0.96*08
$GPGSV,4,1,13,09,82,174,21,23,49,148,18,07,46,351,15,19,44,069,*75
$GPGSV,4,2,13,28,34,253,27,30,29,316,24,10,24,262,17,11,24,136,*7E
$GPGSV,4,3,13,27,20,045,,04,08,123,,01,07,148,,03,05,174,*79
$GPGSV,4,4,13,193,,,*40
$GPRMC,065837.000,A,2109.5277,N,07247.0845,E,1.16,288.87,240515,,,A*6F
$GPGGA,065838.000,2109.5279,N,07247.0843,E,1,6,1.33,97.1,M,-61.3,M,,*47
$GPGSA,A,3,07,30,10,28,09,23,,,,,,,1.64,1.33,0.96*08
$GPGSV,4,1,13,09,82,174,21,23,49,148,18,07,46,351,14,19,44,069,*74
$GPGSV,4,2,13,28,34,253,28,30,29,316,25,10,24,262,17,11,24,136,*70
$GPGSV,4,3,13,27,20,045,,04,08,123,,01,07,148,,03,05,174,*79
$GPGSV,4,4,13,193,,,*40
$GPRMC,065838.000,A,2109.5279,N,07247.0843,E,0.93,261.50,240515,,,A*69
$GPGGA,065839.000,2109.5281,N,07247.0840,E,1,6,1.33,96.9,M,-61.3,M,,*4B
$GPGSA,A,3,07,30,10,28,09,23,,,,,,,1.64,1.33,0.96*08
$GPGSV,4,1,13,09,82,174,21,23,48,148,18,07,46,351,16,19,44,069,*77
$GPGSV,4,2,13,28,34,253,28,30,29,316,26,10,24,262,16,11,24,136,*72
$GPGSV,4,3,13,27,20,045,,04,08,123,,01,07,148,,03,05,174,*79
$GPGSV,4,4,13,193,,,*40
$GPRMC,065839.000,A,2109.5281,N,07247.0840,E,1.42,262.05,240515,,,A*62
$GPGGA,065840.000,2109.5282,N,07247.0836,E,1,6,1.33,96.8,M,-61.3,M,,*46
$GPGSA,A,3,07,30,10,28,09,23,,,,,,,1.64,1.33,0.96*08
$GPGSV,4,1,13,09,82,174,20,23,48,148,19,07,46,351,15,19,44,069,*74
$GPGSV,4,2,13,28,34,253,28,30,29,316,26,10,24,262,15,11,24,136,*71
$GPGSV,4,3,13,27,20,045,,04,08,123,,01,07,148,,03,05,174,*79
$GPGSV,4,4,13,193,,,*40
$GPRMC,065840.000,A,2109.5282,N,07247.0836,E,1.76,262.93,240515,,,A*66
$GPGGA,065841.000,2109.5281,N,07247.0837,E,1,6,1.33,96.8,M,-61.3,M,,*45
$GPGSA,A,3,07,30,10,28,09,23,,,,,,,1.64,1.33,0.96*08
$GPGSV,4,1,13,09,82,174,20,23,48,148,19,07,46,351,14,19,44,069,*75
$GPGSV,4,2,13,28,34,253,27,30,29,316,25,10,24,262,14,11,24,136,*7C
$GPGSV,4,3,13,27,20,045,,04,08,123,,01,07,148,,03,05,174,*79
$GPGSV,4,4,13,193,,,*40
$GPRMC,065841.000,A,2109.5281,N,07247.0837,E,1.28,251.22,240515,,,A*64
$GPGGA,065842.000,2109.5281,N,07247.0835,E,1,6,1.33,96.7,M,-61.3,M,,*4B
$GPGSA,A,3,07,30,10,28,09,23,,,,,,,1.64,1.33,0.96*08
$GPGSV,4,1,13,09,82,174,20,23,48,148,19,07,46,351,14,19,44,069,*75
$GPGSV,4,2,13,28,34,253,27,30,29,316,25,10,24,262,13,11,24,136,*7B
$GPGSV,4,3,13,27,20,045,,04,08,123,,01,07,148,,03,05,174,*79
$GPGSV,4,4,13,193,,,*40
$GPRMC,065842.000,A,2109.5281,N,07247.0835,E,1.23,252.32,240515,,,A*6C
$GPGGA,065843.000,2109.5282,N,07247.0832,E,1,6,1.33,96.7,M,-61.3,M,,*4E
$GPGSA,A,3,07,30,10,28,09,23,,,,,,,1.64,1.33,0.96*08
$GPGSV,4,1,13,09,82,174,19,23,48,148,18,07,46,351,16,19,44,069,*7C
$GPGSV,4,2,13,28,34,253,27,30,29,316,25,10,24,262,15,11,24,136,*7D
$GPGSV,4,3,13,27,20,045,,04,08,123,,01,07,148,,03,05,174,*79
$GPGSV,4,4,13,193,,,*40
$GPRMC,065843.000,A,2109.5282,N,07247.0832,E,1.21,253.35,240515,,,A*6D
$GPGGA,065844.000,2109.5284,N,07247.0828,E,1,6,1.33,96.7,M,-61.3,M,,*44
$GPGSA,A,3,07,30,10,28,09,23,,,,,,,1.64,1.33,0.96*08
$GPGSV,4,1,13,09,82,174,19,23,48,148,18,07,46,351,15,19,44,069,*7F
$GPGSV,4,2,13,28,35,253,27,30,29,316,25,10,24,262,15,11,24,136,*7C
$GPGSV,4,3,13,27,20,045,,04,08,123,,01,07,148,,03,05,174,*79
$GPGSV,4,4,13,193,,,*40
$GPRMC,065844.000,A,2109.5284,N,07247.0828,E,1.77,270.67,240515,,,A*62
$GPGGA,065845.000,2109.5285,N,07247.0830,E,1,6,1.33,96.6,M,-61.3,M,,*4C
$GPGSA,A,3,07,30,10,28,09,23,,,,,,,1.64,1.33,0.96*08
$GPGSV,4,1,13,09,82,174,19,23,48,148,18,07,46,351,17,19,44,069,*7D
$GPGSV,4,2,13,28,35,253,27,30,29,316,25,10,24,262,14,11,24,136,*7D
$GPGSV,4,3,13,27,20,045,,04,08,123,,01,07,148,,03,05,174,*79
$GPGSV,4,4,13,193,,,*40
$GPRMC,065845.000,A,2109.5285,N,07247.0830,E,1.69,286.12,240515,,,A*6F
$GPGGA,065846.000,2109.5286,N,07247.0830,E,1,6,1.33,96.6,M,-61.3,M,,*4C
$GPGSA,A,3,07,30,10,28,09,23,,,,,,,1.64,1.33,0.96*08
$GPGSV,4,1,13,09,82,174,19,23,48,148,18,07,46,351,17,19,44,069,*7D
$GPGSV,4,2,13,28,35,253,27,30,29,317,26,10,24,262,14,11,24,136,*7F
$GPGSV,4,3,13,27,20,045,,04,08,123,,01,07,148,,03,05,174,*79
$GPGSV,4,4,13,193,,,*40
$GPRMC,065846.000,A,2109.5286,N,07247.0830,E,1.64,286.06,240515,,,A*67
$GPGGA,065847.000,2109.5285,N,07247.0831,E,1,6,1.33,96.6,M,-61.3,M,,*4F
$GPGSA,A,3,07,30,10,28,09,23,,,,,,,1.64,1.33,0.96*08
$GPGSV,4,1,13,09,82,174,19,23,48,148,18,07,46,351,14,19,44,069,*7E
$GPGSV,4,2,13,28,35,253,27,30,29,317,26,10,24,262,15,11,24,136,*7E
$GPGSV,4,3,13,27,20,045,,04,08,123,,01,07,148,,03,05,174,*79
$GPGSV,4,4,13,193,,,*40
$GPRMC,065847.000,A,2109.5285,N,07247.0831,E,1.29,284.72,240515,,,A*6C
$GPGGA,065848.000,2109.5285,N,07247.0831,E,1,6,1.33,96.6,M,-61.3,M,,*40
$GPGSA,A,3,07,30,10,28,09,23,,,,,,,1.64,1.33,0.96*08
$GPGSV,4,1,14,09,82,174,19,23,48,148,19,07,46,351,16,19,44,069,*7A
$GPGSV,4,2,14,28,35,253,27,30,29,317,26,10,24,262,17,11,24,136,*7B
$GPGSV,4,3,14,27,20,045,18,04,08,123,,01,07,148,,03,05,174,*77
$GPGSV,4,4,14,193,,,,38,,,*4C
$GPRMC,065848.000,A,2109.5285,N,07247.0831,E,1.05,267.12,240515,,,A*66
$GPGGA,065849.000,2109.5285,N,07247.0828,E,1,6,1.33,96.4,M,-61.3,M,,*4B
$GPGSA,A,3,07,30,10,28,09,23,,,,,,,1.64,1.33,0.96*08
$GPGSV,4,1,14,09,82,174,19,23,48,148,19,07,46,351,16,19,44,069,*7A
$GPGSV,4,2,14,28,35,253,28,30,29,317,27,10,24,262,14,11,24,136,*76
$GPGSV,4,3,14,27,20,045,17,04,08,123,,01,07,148,,03,05,174,*78
$GPGSV,4,4,14,193,,,,38,,,*4C
$GPRMC,065849.000,A,2109.5285,N,07247.0828,E,1.29,268.30,240515,,,A*6E
$GPGGA,065850.000,2109.5286,N,07247.0826,E,1,6,1.33,96.4,M,-61.3,M,,*4E
$GPGSA,A,3,07,30,10,28,09,23,,,,,,,1.64,1.33,0.96*08
$GPGSV,4,1,14,09,82,174,19,23,48,148,19,07,46,351,14,19,44,069,*78
$GPGSV,4,2,14,28,35,253,28,30,29,317,26,10,24,262,15,11,24,136,*76
$GPGSV,4,3,14,27,20,045,17,04,08,123,,01,07,148,,03,05,174,*78
$GPGSV,4,4,14,193,,,,38,,,*4C
$GPRMC,065850.000,A,2109.5286,N,07247.0826,E,1.31,269.94,240515,,,A*6D
$GPGGA,065851.000,2109.5288,N,07247.0825,E,1,6,1.32,96.4,M,-61.3,M,,*43
$GPGSA,A,3,07,30,10,28,09,23,,,,,,,1.64,1.32,0.96*09
$GPGSV,4,1,14,09,82,174,19,23,48,148,19,07,46,351,16,19,44,069,*7A
$GPGSV,4,2,14,28,35,253,28,30,29,317,25,10,24,262,14,11,24,136,*74
$GPGSV,4,3,14,27,20,045,17,04,08,123,,01,07,148,,03,05,174,*78
$GPGSV,4,4,14,193,,,,38,,,*4C
$GPRMC,065851.000,A,2109.5288,N,07247.0825,E,1.27,290.34,240515,,,A*6A
$GPGGA,065852.000,2109.5291,N,07247.0826,E,1,6,1.33,96.4,M,-61.3,M,,*4A
$GPGSA,A,3,07,30,10,28,09,23,,,,,,,1.64,1.33,0.96*08
$GPGSV,4,1,14,09,82,174,19,23,48,148,19,07,46,351,16,19,44,069,*7A
$GPGSV,4,2,14,28,35,253,28,30,29,317,25,10,24,262,17,11,24,136,*77
$GPGSV,4,3,14,27,20,045,17,04,08,123,,01,07,148,,03,05,174,*78
$GPGSV,4,4,14,193,,,,38,,,*4C
$GPRMC,065852.000,A,2109.5291,N,07247.0826,E,1.00,313.35,240515,,,A*6C
$GPGGA,065853.000,2109.5293,N,07247.0828,E,1,6,1.32,96.5,M,-61.3,M,,*47
$GPGSA,A,3,07,30,10,28,09,23,,,,,,,1.64,1.32,0.96*09
$GPGSV,4,1,14,09,82,174,19,23,48,148,19,07,46,351,16,19,44,069,*7A
$GPGSV,4,2,14,28,35,253,28,30,29,317,24,10,24,262,16,11,24,136,*77
$GPGSV,4,3,14,27,20,045,17,04,08,123,,01,07,148,,03,05,174,*78
$GPGSV,4,4,14,193,,,,38,,,*4C
$GPRMC,065853.000,A,2109.5293,N,07247.0828,E,0.77,312.68,240515,,,A*69
$GPGGA,065854.000,2109.5295,N,07247.0830,E,1,6,1.33,96.6,M,-61.3,M,,*4D
$GPGSA,A,3,07,30,10,28,09,23,,,,,,,1.64,1.33,0.96*08
$GPGSV,4,1,13,09,82,174,19,23,48,148,18,07,46,351,16,19,44,069,*7C
$GPGSV,4,2,13,28,35,253,27,30,29,317,23,10,24,262,16,11,24,136,*78
$GPGSV,4,3,13,27,20,045,16,04,08,123,,01,07,148,,03,04,174,*7F
$GPGSV,4,4,13,193,,,*40
$GPRMC,065854.000,A,2109.5295,N,07247.0830,E,0.57,312.68,240515,,,A*63
$GPGGA,065855.000,2109.5297,N,07247.0833,E,1,6,1.32,96.6,M,-61.3,M,,*4C
$GPGSA,A,3,07,30,10,28,09,23,,,,,,,1.64,1.32,0.96*09
$GPGSV,4,1,14,09,82,174,19,23,48,148,18,07,46,351,16,19,44,069,*7B
$GPGSV,4,2,14,28,35,253,27,30,29,317,22,10,24,262,16,11,24,136,*7E
$GPGSV,4,3,14,27,20,045,16,04,08,123,,01,07,148,,03,04,174,*78
$GPGSV,4,4,14,193,,,,41,,,*42
$GPRMC,065855.000,A,2109.5297,N,07247.0833,E,0.27,312.68,240515,,,A*64
$GPGGA,065856.000,2109.5295,N,07247.0835,E,1,6,1.74,96.6,M,-61.3,M,,*49
$GPGSA,A,3,07,30,10,28,09,23,,,,,,,3.95,1.74,3.54*0A
$GPGSV,4,1,14,09,82,174,18,23,48,148,18,07,46,351,16,19,44,069,*7A
$GPGSV,4,2,14,28,35,253,27,30,29,317,22,10,24,262,15,11,24,136,*7D
$GPGSV,4,3,14,27,20,045,15,04,08,123,,01,07,148,,03,04,174,*7B
$GPGSV,4,4,14,193,,,,41,,,*42
$GPRMC,065856.000,A,2109.5295,N,07247.0835,E,0.33,312.68,240515,,,A*66
$GPGGA,065857.000,2109.5294,N,07247.0835,E,1,6,1.33,96.5,M,-61.3,M,,*49
$GPGSA,A,3,07,30,10,28,09,23,,,,,,,1.64,1.33,0.96*08
$GPGSV,4,1,14,09,82,174,18,23,48,148,19,07,46,351,17,19,44,069,*7A
$GPGSV,4,2,14,28,35,253,28,30,29,317,22,10,24,262,15,11,24,136,*72
$GPGSV,4,3,14,27,20,045,15,04,08,123,,01,07,148,,03,04,174,*7B
$GPGSV,4,4,14,193,,,,41,,,*42
$GPRMC,065857.000,A,2109.5294,N,07247.0835,E,0.87,304.61,240515,,,A*67
$GPGGA,065858.000,2109.5295,N,07247.0835,E,1,6,1.32,96.5,M,-61.3,M,,*46
$GPGSA,A,3,07,30,10,28,09,23,,,,,,,1.64,1.32,0.96*09
$GPGSV,4,1,14,09,82,174,18,23,48,148,19,07,46,352,17,19,44,069,*79
$GPGSV,4,2,14,28,35,253,28,30,29,317,23,10,24,262,15,11,24,136,*73
$GPGSV,4,3,14,27,20,045,15,04,08,123,,01,07,148,,03,04,174,*7B
$GPGSV,4,4,14,193,,,,41,,,*42
$GPRMC,065858.000,A,2109.5295,N,07247.0835,E,1.14,302.98,240515,,,A*62
$GPGGA,065859.000,2109.5296,N,07247.0834,E,1,6,1.32,96.5,M,-61.3,M,,*45
$GPGSA,A,3,07,30,10,28,09,23,,,,,,,1.64,1.32,0.96*09
$GPGSV,4,1,14,09,82,174,18,23,48,148,19,07,46,352,17,19,44,069,*79
$GPGSV,4,2,14,28,35,253,27,30,29,317,23,10,24,262,15,11,24,136,*7C
$GPGSV,4,3,14,27,20,045,15,04,08,123,,01,07,148,,03,04,174,*7B
$GPGSV,4,4,14,193,,,,41,,,*42
$GPRMC,065859.000,A,2109.5296,N,07247.0834,E,1.37,299.29,240515,,,A*69
$GPGGA,065900.000,2109.5295,N,07247.0837,E,1,6,1.32,96.1,M,-61.3,M,,*4C
$GPGSA,A,3,07,30,10,28,09,23,,,,,,,1.64,1.32,0.96*09
$GPGSV,4,1,14,09,81,174,18,23,48,148,19,07,46,352,17,19,44,069,*7A
$GPGSV,4,2,14,28,35,253,27,30,29,317,24,10,24,262,15,11,24,136,*7B
$GPGSV,4,3,14,27,20,045,15,04,08,123,,01,07,148,,03,04,174,*7B
$GPGSV,4,4,14,193,,,,41,,,*42
$GPRMC,065900.000,A,2109.5295,N,07247.0837,E,1.35,296.23,240515,,,A*63
$GPGGA,090440.000,2109.5432,N,07247.0268,E,1,3,3.61,218.0,M,-61.3,M,,*70
$GPGSA,A,2,13,17,28,,,,,,,,,,3.75,3.61,1.00*09
$GPGSV,2,1,05,17,57,225,15,28,46,337,25,13,26,310,37,193,,,*79
$GPGSV,2,2,05,11,,,27*79
$GPRMC,090440.000,A,2109.5432,N,07247.0268,E,0.21,267.66,260515,,,A*62
$GPGGA,090441.000,2109.5432,N,07247.0271,E,1,3,3.61,218.0,M,-61.3,M,,*79
$GPGSA,A,2,13,17,28,,,,,,,,,,3.75,3.61,1.00*09
$GPGSV,2,1,05,17,57,225,15,28,46,337,25,13,26,310,37,193,,,*79
$GPGSV,2,2,05,11,,,26*78
$GPRMC,090441.000,A,2109.5432,N,07247.0271,E,0.25,267.66,260515,,,A*6F
$GPGGA,090442.000,2109.5431,N,07247.0273,E,1,3,3.61,218.0,M,-61.3,M,,*7B
$GPGSA,A,2,13,17,28,,,,,,,,,,3.75,3.61,1.00*09
$GPGSV,2,1,05,17,57,225,15,28,46,337,25,13,26,310,37,193,,,*79
$GPGSV,2,2,05,11,,,27*79
$GPRMC,090442.000,A,2109.5431,N,07247.0273,E,0.08,267.66,260515,,,A*62
$GPGGA,090443.000,2109.5426,N,07247.0271,E,1,3,3.61,218.1,M,-61.3,M,,*7F
$GPGSA,A,2,13,17,28,,,,,,,,,,3.74,3.61,1.00*08
$GPGSV,2,1,05,17,57,225,15,28,46,337,25,13,26,310,37,193,,,*79
$GPGSV,2,2,05,11,,,26*78
$GPRMC,090443.000,A,2109.5426,N,07247.0271,E,0.60,214.30,260515,,,A*6E
$GPGGA,090444.000,2109.5417,N,07247.0267,E,1,3,3.61,218.1,M,-61.3,M,,*7D
$GPGSA,A,2,13,17,28,,,,,,,,,,3.74,3.61,1.00*08
$GPGSV,2,1,05,17,57,225,15,28,46,337,25,13,26,310,37,193,,,*79
$GPGSV,2,2,05,11,,,26*78
$GPRMC,090444.000,A,2109.5417,N,07247.0267,E,1.25,215.58,260515,,,A*63
$GPGGA,090444.212,2109.5412,N,07247.0267,E,1,3,3.61,218.1,M,-61.3,M,,*79
$GPGSA,A,2,13,17,28,,,,,,,,,,3.75,3.61,1.00*09
$GPGSV,2,1,05,17,57,225,16,28,46,337,25,13,26,310,37,193,,,*7A
$GPGSV,2,2,05,11,,,26*78
$GPRMC,090444.212,A,2109.5412,N,07247.0267,E,1.45,216.36,260515,,,A*6A
$GPGGA,090446.000,2109.5403,N,07247.0262,E,1,3,3.61,218.1,M,-61.3,M,,*7F
$GPGSA,A,2,13,17,28,,,,,,,,,,3.74,3.61,1.00*08
$GPGSV,2,1,05,17,57,225,16,28,46,337,25,13,26,310,37,193,,,*7A
$GPGSV,2,2,05,11,,,26*78
$GPRMC,090446.000,A,2109.5403,N,07247.0262,E,1.52,216.86,260515,,,A*61
$GPGGA,090447.000,2109.5397,N,07247.0260,E,1,3,3.61,218.1,M,-61.3,M,,*76
$GPGSA,A,2,13,17,28,,,,,,,,,,3.74,3.61,1.00*08
$GPGSV,2,1,05,17,57,225,15,28,46,337,25,13,26,310,37,193,,,*79
$GPGSV,2,2,05,11,,,26*78
$GPRMC,090447.000,A,2109.5397,N,07247.0260,E,1.58,212.46,260515,,,A*6A
$GPGGA,090448.000,2109.5393,N,07247.0259,E,1,3,3.60,218.2,M,-61.3,M,,*75
$GPGSA,A,2,13,17,28,,,,,,,,,,3.74,3.60,1.00*09
$GPGSV,2,1,05,17,57,225,15,28,46,337,25,13,26,310,37,193,,,*79
$GPGSV,2,2,05,11,,,26*78
$GPRMC,090448.000,A,2109.5393,N,07247.0259,E,1.52,214.40,260515,,,A*61
$GPGGA,090449.000,2109.5387,N,07247.0256,E,1,3,3.60,218.2,M,-61.3,M,,*7E
$GPGSA,A,2,13,17,28,,,,,,,,,,3.74,3.60,1.00*09
$GPGSV,2,1,05,17,57,225,14,28,46,337,26,13,26,310,37,193,,,*7B
$GPGSV,2,2,05,11,,,27*79
$GPRMC,090449.000,A,2109.5387,N,07247.0256,E,1.95,216.66,260515,,,A*67
$GPGGA,090450.000,2109.5383,N,07247.0254,E,1,3,3.60,218.2,M,-61.3,M,,*70
$GPGSA,A,2,13,17,28,,,,,,,,,,3.74,3.60,1.00*09
$GPGSV,2,1,05,17,57,225,14,28,46,337,26,13,26,310,37,193,,,*7B
$GPGSV,2,2,05,11,,,27*79
$GPRMC,090450.000,A,2109.5383,N,07247.0254,E,1.92,238.19,260515,,,A*6A
$GPGGA,090450.220,2109.5381,N,07247.0255,E,1,3,3.60,218.2,M,-61.3,M,,*73
$GPGSA,A,2,13,17,28,,,,,,,,,,3.74,3.60,1.00*09
$GPGSV,2,1,05,17,57,225,14,28,46,337,26,13,26,310,37,193,,,*7B
$GPGSV,2,2,05,11,,,27*79
$GPRMC,090450.220,A,2109.5381,N,07247.0255,E,1.90,237.51,260515,,,A*68
$GPGGA,090452.000,2109.5377,N,07247.0255,E,1,3,3.60,218.2,M,-61.3,M,,*78
$GPGSA,A,2,13,17,28,,,,,,,,,,3.73,3.60,1.00*0E
$GPGSV,2,1,05,17,57,225,14,28,46,337,26,13,26,310,37,193,,,*7B
$GPGSV,2,2,05,11,,,27*79
$GPRMC,090452.000,A,2109.5377,N,07247.0255,E,0.95,217.52,260515,,,A*66
$GPGGA,090453.000,2109.5374,N,07247.0257,E,1,3,3.60,218.3,M,-61.3,M,,*79
$GPGSA,A,2,13,17,28,,,,,,,,,,3.73,3.60,1.00*0E
$GPGSV,2,1,05,17,57,225,13,28,46,337,26,13,26,310,37,193,,,*7C
$GPGSV,2,2,05,11,,,27*79
$GPRMC,090453.000,A,2109.5374,N,07247.0257,E,0.95,212.36,260515,,,A*61
$GPGGA,090454.000,2109.5369,N,07247.0258,E,1,3,3.60,218.3,M,-61.3,M,,*7D
$GPGSA,A,2,13,17,28,,,,,,,,,,3.74,3.60,1.00*09
$GPGSV,2,1,05,17,57,225,13,28,46,337,25,13,26,310,37,193,,,*7F
$GPGSV,2,2,05,11,,,27*79
$GPRMC,090454.000,A,2109.5369,N,07247.0258,E,1.00,212.96,260515,,,A*62
$GPGGA,090455.000,2109.5365,N,07247.0261,E,1,3,3.60,218.3,M,-61.3,M,,*7A
$GPGSA,A,2,13,17,28,,,,,,,,,,3.73,3.60,1.00*0E
$GPGSV,2,1,05,17,57,225,13,28,46,337,25,13,26,310,37,193,,,*7F
$GPGSV,2,2,05,11,,,28*76
$GPRMC,090455.000,A,2109.5365,N,07247.0261,E,1.00,215.99,260515,,,A*6D
$GPGGA,090456.000,2109.5372,N,07247.0275,E,1,3,3.60,218.4,M,-61.3,M,,*7D
$GPGSA,A,2,13,17,28,,,,,,,,,,3.74,3.60,1.00*09
$GPGSV,2,1,05,17,57,225,13,28,46,337,27,13,26,310,37,193,,,*7D
$GPGSV,2,2,05,11,,,28*76
$GPRMC,090456.000,A,2109.5372,N,07247.0275,E,0.58,35.86,260515,,,A*5F
$GPGGA,090456.219,2109.5372,N,07247.0283,E,1,3,3.60,218.4,M,-61.3,M,,*7E
$GPGSA,A,2,13,17,28,,,,,,,,,,3.73,3.60,1.00*0E
$GPGSV,2,1,05,17,57,225,13,28,46,337,28,13,26,310,37,193,,,*72
$GPGSV,2,2,05,11,,,28*76
$GPRMC,090456.219,A,2109.5372,N,07247.0283,E,0.75,36.52,260515,,,A*59
$GPGGA,090458.000,2109.5368,N,07247.0284,E,1,3,3.59,218.5,M,-61.3,M,,*7D
$GPGSA,A,2,13,17,28,,,,,,,,,,3.73,3.59,1.00*04
$GPGSV,2,1,05,17,57,225,13,28,46,337,28,13,26,310,37,193,,,*72
$GPGSV,2,2,05,11,,,27*79
$GPRMC,090458.000,A,2109.5368,N,07247.0284,E,0.11,36.52,260515,,,A*53
$GPGGA,090459.000,2109.5367,N,07247.0289,E,1,3,3.60,218.5,M,-61.3,M,,*74
$GPGSA,A,2,13,17,28,,,,,,,,,,3.73,3.60,1.00*0E
$GPGSV,2,1,05,17,57,225,13,28,46,337,28,13,26,310,36,193,,,*73
$GPGSV,2,2,05,11,,,26*78
$GPRMC,090459.000,A,2109.5367,N,07247.0289,E,0.45,36.52,260515,,,A*51
$GPGGA,09°$PMTK011,MTKGPS*08
$PMTK010,001*2E
$PMTK010,002*2D
$GPGGA,235944.003,,,,,0,0,,,M,,M,,*46
$GPGSA,A,1,,,,,,,,,,,,,,,*1E
$GPGSV,1,1,00*79
$GPRMC,235944.003,V,,,,,0.00,0.00,050180,,,N*4F
$GPGGA,235945.002,,,,,0,0,,,M,,M,,*46
$GPGSA,A,1,,,,,,,,,,,,,,,*1E
$GPGSV,1,1,00*79
$GPRMC,235945.002,V,,,,,0.00,0.00,050180,,,N*4F
$GPGGA,235946.003,,,,,0,0,,,M,,M,,*44
$GPGSA,A,1,,,,,,,,,,,,,,,*1E
$GPGSV,1,1,00*79
$GPRMC,235946.003,V,,,,,0.00,0.00,050180,,,N*4D
$GPGGA,235947.003,,,,,0,0,,,M,,M,,*45
$GPGSA,A,1,,,,,,,,,,,,,,,*1E
$GPGSV,1,1,00*79
$GPRMC,235947.003,V,,,,,0.00,0.00,050180,,,N*4C
$GPGGA,235948.003,,,,,0,0,,,M,,M,,*4A
$GPGSA,A,1,,,,,,,,,,,,,,,*1E
$GPGSV,1,1,00*79
$GPRMC,235948.003,V,,,,,0.00,0.00,050180,,,N*43
$GPGGA,235949.003,,,,,0,0,,,M,,M,,*4B
$GPGSA,A,1,,,,,,,,,,,,,,,*1E
$GPGSV,1,1,00*79
$GPRMC,235949.003,V,,,,,0.00,0.00,050180,,,N*42
$GPGGA,235950.003,,,,,0,0,,,M,,M,,*43
$GPGSA,A,1,,,,,,,,,,,,,,,*1E
$GPGSV,1,1,00*79
$GPRMC,235950.003,V,,,,,0.00,0.00,050180,,,N*4A
$GPGGA,235951.003,,,,,0,0,,,M,,M,,*42
$GPGSA,A,1,,,,,,,,,,,,,,,*1E
$GPGSV,1,1,00*79
$GPRMC,235951.003,V,,,,,0.00,0.00,050180,,,N*4B
$GPGGA,235952.003,,,,,0,0,,,M,,M,,*41
$GPGSA,A,1,,,,,,,,,,,,,,,*1E
$GPGSV,1,1,00*79
$GPRMC,235952.003,V,,,,,0.00,0.00,050180,,,N*48
$GPGGA,235953.003,,,,,0,0,,,M,,M,,*40
$GPGSA,A,1,,,,,,,,,,,,,,,*1E
$GPGSV,1,1,00*79
$GPRMC,235953.003,V,,,,,0.00,0.00,050180,,,N*49
$GPGGA,235954.003,,,,,0,0,,,M,,M,,*47
$GPGSA,A,1,,,,,,,,,,,,,,,*1E
$GPGSV,1,1,00*79
$GPRMC,235954.003,V,,,,,0.00,0.00,050180,,,N*4E
$GPGGA,235955.003,,,,,0,0,,,M,,M,,*46
$GPGSA,A,1,,,,,,,,,,,,,,,*1E
$GPGSV,1,1,00*79
$GPRMC,235955.003,V,,,,,0.00,0.00,050180,,,N*4F
$GPGGA,235956.003,,,,,0,0,,,M,,M,,*45
$GPGSA,A,1,,,,,,,,,,,,,,,*1E
$GPGSV,1,1,00*79
$GPRMC,235956.003,V,,,,,0.00,0.00,050180,,,N*4C
$GPGGA,235957.003,,,,,0,0,,,M,,M,,*44
$GPGSA,A,1,,,,,,,,,,,,,,,*1E
$GPGSV,1,1,00*79
$GPRMC,235957.003,V,,,,,0.00,0.00,050180,,,N*4D
$GPGGA,235958.003,,,,,0,0,,,M,,M,,*4B
$GPGSA,A,1,,,,,,,,,,,,,,,*1E
$GPGSV,1,1,00*79
$GPRMC,235958.003,V,,,,,0.00,0.00,050180,,,N*42
$GPGGA,235959.003,,,,,0,0,,,M,,M,,*4A
$GPGSA,A,1,,,,,,,,,,,,,,,*1E
$GPGSV,1,1,00*79
$GPRMC,235959.003,V,,,,,0.00,0.00,050180,,,N*43
$GPGGA,000000.003,,,,,0,0,,,M,,M,,*4B
$GPGSA,A,1,,,,,,,,,,,,,,,*1E
$GPGSV,1,1,00*79
$GPRMC,000000.003,V,,,,,0.00,0.00,060180,,,N*41
$GPGGA,000001.003,,,,,0,0,,,M,,M,,*4A
$GPGSA,A,1,,,,,,,,,,,,,,,*1E
$GPGSV,1,1,00*79
$GPRMC,000001.003,V,,,,,0.00,0.00,060180,,,N*40
$GPGGA,000002.003,,,,,0,0,,,M,,M,,*49
$GPGSA,A,1,,,,,,,,,,,,,,,*1E
$GPGSV,1,1,00*79
$GPRMC,000002.003,V,,,,,0.00,0.00,060180,,,N*43
$GPGGA,000003.003,,,,,0,0,,,M,,M,,*48
$GPGSA,A,1,,,,,,,,,,,,,,,*1E
$GPGSV,1,1,00*79
$GPRMC,000003.003,V,,,,,0.00,0.00,060180,,,N*42
$GPGGA,000004.003,,,,,0,0,,,M,,M,,*4F
$GPGSA,A,1,,,,,,,,,,,,,,,*1E
$GPGSV,1,1,00*79
$GPRMC,000004.003,V,,,,,0.00,0.00,060180,,,N*45
$GPGGA,000005.003,,,,,0,0,,,M,,M,,*4E
$GPGSA,A,1,,,,,,,,,,,,,,,*1E
$GPGSV,1,1,00*79
$GPRMC,000005.003,V,,,,,0.00,0.00,060180,,,N*44
$GPGGA,000006.003,,,,,0,0,,,M,,M,,*4D
$GPGSA,A,1,,,,,,,,,,,,,,,*1E
$GPGSV,1,1,00*79
$GPRMC,000006.003,V,,,,,0.00,0.00,060180,,,N*47
$GPGGA,000007.003,,,,,0,0,,,M,,M,,*4C
$GPGSA,A,1,,,,,,,,,,,,,,,*1E
$GPGSV,1,1,01,13,,,38*71
$GPRMC,000007.003,V,,,,,0.00,0.00,060180,,,N*46
$GPGGA,000008.003,,,,,0,0,,,M,,M,,*43
$GPGSA,A,1,,,,,,,,,,,,,,,*1E
$GPGSV,1,1,01,13,,,37*7E
$GPRMC,000008.003,V,,,,,0.00,0.00,060180,,,N*49
$GPGGA,000009.003,,,,,0,0,,,M,,M,,*42
$GPGSA,A,1,,,,,,,,,,,,,,,*1E
$GPGSV,1,1,01,13,,,38*71
$GPRMC,000009.003,V,,,,,0.00,0.00,060180,,,N*48
$GPGGA,000010.003,,,,,0,0,,,M,,M,,*4A
$GPGSA,A,1,,,,,,,,,,,,,,,*1E
$GPGSV,1,1,01,13,,,38*71
$GPRMC,000010.003,V,,,,,0.00,0.00,060180,,,N*40
$GPGGA,000011.003,,,,,0,0,,,M,,M,,*4B
$GPGSA,A,1,,,,,,,,,,,,,,,*1E
$GPGSV,1,1,01,13,,,37*7E
$GPRMC,000011.003,V,,,,,0.00,0.00,060180,,,N*41
$GPGGA,000012.003,,,,,0,0,,,M,,M,,*48
$GPGSA,A,1,,,,,,,,,,,,,,,*1E
$GPGSV,1,1,01,13,,,37*7E
$GPRMC,000012.003,V,,,,,0.00,0.00,060180,,,N*42
$GPGGA,000013.003,,,,,0,0,,,M,,M,,*49
$GPGSA,A,1,,,,,,,,,,,,,,,*1E
$GPGSV,1,1,01,13,,,37*7E
$GPRMC,000013.003,V,,,,,0.00,0.00,060180,,,N*43
$GPGGA,000014.003,,,,,0,0,,,M,,M,,*4E
$GPGSA,A,1,,,,,,,,,,,,,,,*1E
$GPGSV,1,1,01,13,,,37*7E
$GPRMC,000014.003,V,,,,,0.00,0.00,060180,,,N*44
$GPGGA,000015.003,,,,,0,0,,,M,,M,,*4F
$GPGSA,A,1,,,,,,,,,,,,,,,*1E
$GPGSV,1,1,01,13,,,37*7E
$GPRMC,000015.003,V,,,,,0.00,0.00,060180,,,N*45
$GPGGA,000016.003,,,,,0,0,,,M,,M,,*4C
$GPGSA,A,1,,,,,,,,,,,,,,,*1E
$GPGSV,1,1,01,13,,,37*7E
$GPRMC,000016.003,V,,,,,0.00,0.00,060180,,,N*46
$GPGGA,000017.003,,,,,0,0,,,M,,M,,*4D
$GPGSA,A,1,,,,,,,,,,,,,,,*1E
$GPGSV,1,1,01,13,,,37*7E
$GPRMC,000017.003,V,,,,,0.00,0.00,060180,,,N*47
$GPGGA,000017.936,,,,,0,0,,,M,,M,,*42
$GPGSA,A,1,,,,,,,,,,,,,,,*1E
$GPGSV,1,1,01,13,,,37*7E
$GPRMC,000017.936,V,,,,,0.00,0.00,060180,,,N*48
$GPGGA,000018.936,,,,,0,0,,,M,,M,,*4D
$GPGSA,A,1,,,,,,,,,,,,,,,*1E
$GPGSV,1,1,01,13,,,37*7E
$GPRMC,000018.936,V,,,,,0.00,0.00,060180,,,N*47
$GPGGA,090540.097,,,,,0,0,,,M,,M,,*4E
$GPGSA,A,1,,,,,,,,,,,,,,,*1E
$GPGSV,1,1,01,13,,,36*7F
$GPRMC,090540.097,V,,,,,0.00,0.00,080180,,,N*4A
$GPGGA,090541.097,,,,,0,0,,,M,,M,,*4F
$GPGSA,A,1,,,,,,,,,,,,,,,*1E
$GPGSV,1,1,01,13,,,36*7F
$GPRMC,090541.097,V,,,,,0.00,0.00,080180,,,N*4B
$GPGGA,090542.097,,,,,0,0,,,M,,M,,*4C
$GPGSA,A,1,,,,,,,,,,,,,,,*1E
$GPGSV,1,1,01,13,,,36*7F
$GPRMC,090542.097,V,,,,,0.00,0.00,080180,,,N*48
$GPGGA,090543.097,,,,,0,0,,,M,,M,,*4D
$GPGSA,A,1,,,,,,,,,,,,,,,*1E
$GPGSV,1,1,01,13,,,36*7F
$GPRMC,090543.097,V,,,,,0.00,0.00,080180,,,N*49
$GPGGA,090544.097,,,,,0,0,,,M,,M,,*4A
$GPGSA,A,1,,,,,,,,,,,,,,,*1E
$GPGSV,1,1,01,13,,,36*7F
$GPRMC,090544.097,V,,,,,0.00,0.00,080180,,,N*4E
$GPGGA,090545.097,,,,,0,0,,,M,,M,,*4B
$GPGSA,A,1,,,,,,,,,,,,,,,*1E
$GPGSV,1,1,01,13,,,36*7F
$GPRMC,090545.097,V,,,,,0.00,0.00,080180,,,N*4F
$GPGGA,090546.097,,,,,0,0,,,M,,M,,*48
$GPGSA,A,1,,,,,,,,,,,,,,,*1E
$GPGSV,1,1,01,13,,,36*7F
$GPRMC,090546.097,V,,,,,0.00,0.00,080180,,,N*4C
$GPGGA,090547.097,,,,,0,0,,,M,,M,,*49
$GPGSA,A,1,,,,,,,,,,,,,,,*1E
$GPGSV,1,1,01,13,,,36*7F
$GPRMC,090547.097,V,,,,,0.00,0.00,080180,,,N*4D
$GPGGA,090548.097,,,,,0,0,,,M,,M,,*46
$GPGSA,A,1,,,,,,,,,,,,,,,*1E
$GPGSV,1,1,01,13,,,36*7F
$GPRMC,090548.097,V,,,,,0.00,0.00,080180,,,N*42
$GPGGA,090549.097,,,,,0,0,,,M,,M,,*47
$GPGSA,A,1,,,,,,,,,,,,,,,*1E
$GPGSV,1,1,01,13,,,36*7F
$GPRMC,090549.097,V,,,,,0.00,0.00,080180,,,N*43
$GPGGA,090550.097,,,,,0,0,,,M,,M,,*4F
$GPGSA,A,1,,,,,,,,,,,,,,,*1E
$GPGSV,1,1,01,13,,,36*7F
$GPRMC,090550.097,V,,,,,0.00,0.00,080180,,,N*4B
$GPGGA,090551.097,,,,,0,0,,,M,,M,,*4E
$GPGSA,A,1,,,,,,,,,,,,,,,*1E
$GPGSV,1,1,01,13,,,36*7F
$GPRMC,090551.097,V,,,,,0.00,0.00,080180,,,N*4A
$GPGGA,090552.097,,,,,0,0,,,M,,M,,*4D
$GPGSA,A,1,,,,,,,,,,,,,,,*1E
$GPGSV,1,1,01,13,,,36*7F
$GPRMC,090552.097,V,,,,,0.00,0.00,080180,,,N*49
$GPGGA,090553.097,,,,,0,0,,,M,,M,,*4C
$GPGSA,A,1,,,,,,,,,,,,,,,*1E
$GPGSV,1,1,01,13,,,36*7F
$GPRMC,090553.097,V,,,,,0.00,0.00,080180,,,N*48
$GPGGA,090554.097,,,,,0,0,,,M,,M,,*4B
$GPGSA,A,1,,,,,,,,,,,,,,,*1E
$GPGSV,1,1,01,13,,,36*7F
$GPRMC,090554.097,V,,,,,0.00,0.00,080180,,,N*4F
$GPGGA,090555.097,,,,,0,0,,,M,,M,,*4A
$GPGSA,A,1,,,,,,,,,,,,,,,*1E
$GPGSV,1,1,01,13,,,36*7F
$GPRMC,090555.097,V,,,,,0.00,0.00,080180,,,N*4E
$GPGGA,090556.097,,,,,0,0,,,M,,M,,*49
$GPGSA,A,1,,,,,,,,,,,,,,,*1E
$GPGSV,1,1,01,13,,,36*7F
$GPRMC,090556.097,V,,,,,0.00,0.00,080180,,,N*4D
$GPGGA,090557.097,,,,,0,0,,,M,,M,,*48
$GPGSA,A,1,,,,,,,,,,,,,,,*1E
$GPGSV,1,1,01,13,,,36*7F
$GPRMC,090557.097,V,,,,,0.00,0.00,080180,,,N*4C
$GPGGA,090558.097,,,,,0,0,,,M,,M,,*47
$GPGSA,A,1,,,,,,,,,,,,,,,*1E
$GPGSV,1,1,01,13,,,36*7F
$GPRMC,090558.097,V,,,,,0.00,0.00,080180,,,N*43
$GPGGA,090559.097,,,,,0,0,,,M,,M,,*46
$GPGSA,A,1,,,,,,,,,,,,,,,*1E
$GPGSV,1,1,01,13,,,36*7F
$GPRMC,090559.097,V,,,,,0.00,0.00,080180,,,N*42
$GPGGA,090600.097,,,,,0,0,,,M,,M,,*49
$GPGSA,A,1,,,,,,,,,,,,,,,*1E
$GPGSV,1,1,01,13,,,36*7F
$GPRMC,090600.097,V,,,,,0.00,0.00,080180,,,N*4D
$GPGGA,090601.097,,,,,0,0,,,M,,M,,*48
$GPGSA,A,1,,,,,,,,,,,,,,,*1E
$GPGSV,1,1,01,13,,,36*7F
$GPRMC,090601.097,V,,,,,0.00,0.00,080180,,,N*4C
$GPGGA,090602.097,,,,,0,0,,,M,,M,,*4B
$GPGSA,A,1,,,,,,,,,,,,,,,*1E
$GPGSV,1,1,01,13,,,36*7F
$GPRMC,090602.097,V,,,,,0.00,0.00,260515,,,N*4B
$GPGGA,090603.097,,,,,0,0,,,M,,M,,*4A
$GPGSA,A,1,,,,,,,,,,,,,,,*1E
$GPGSV,1,1,01,13,,,36*7F
$GPRMC,090603.097,V,,,,,0.00,0.00,260515,,,N*4A
$GPGGA,090604.097,,,,,0,0,,,M,,M,,*4D
$GPGSA,A,1,,,,,,,,,,,,,,,*1E
$GPGSV,1,1,01,13,,,36*7F
$GPRMC,090604.097,V,,,,,0.00,0.00,260515,,,N*4D
$GPGGA,090605.097,,,,,0,0,,,M,,M,,*4C
$GPGSA,A,1,,,,,,,,,,,,,,,*1E
$GPGSV,1,1,01,13,,,36*7F
$GPRMC,090605.097,V,,,,,0.00,0.00,260515,,,N*4C
$GPGGA,090606.097,,,,,0,0,,,M,,M,,*4F
$GPGSA,A,1,,,,,,,,,,,,,,,*1E
$GPGSV,1,1,01,13,,,36*7F
$GPRMC,090606.097,V,,,,,0.00,0.00,260515,,,N*4F
$GPGGA,090607.097,,,,,0,0,,,M,,M,,*4E
$GPGSA,A,1,,,,,,,,,,,,,,,*1E
$GPGSV,1,1,01,13,,,36*7F
$GPRMC,090607.097,V,,,,,0.00,0.00,260515,,,N*4E
$GPGGA,090608.092,,,,,0,0,,,M,,M,,*44
$GPGSA,A,1,,,,,,,,,,,,,,,*1E
$GPGSV,1,1,01,13,,,36*7F
$GPRMC,090608.092,V,,,,,0.00,0.00,260515,,,N*44
$GPGGA,090609.092,,,,,0,0,,,M,,M,,*45
$GPGSA,A,1,,,,,,,,,,,,,,,*1E
$GPGSV,1,1,01,13,,,36*7F
$GPRMC,090609.092,V,,,,,0.00,0.00,260515,,,N*45
$GPGGA,090610.092,,,,,0,0,,,M,,M,,*4D
$GPGSA,A,1,,,,,,,,,,,,,,,*1E
$GPGSV,1,1,01,13,,,36*7F
$GPRMC,090610.092,V,,,,,0.00,0.00,260515,,,N*4D
$GPGGA,090611.092,,,,,0,0,,,M,,M,,*4C
$GPGSA,A,1,,,,,,,,,,,,,,,*1E
$GPGSV,1,1,01,13,,,36*7F
$GPRMC,090611.092,V,,,,,0.00,0.00,260515,,,N*4C
$GPGGA,090612.092,,,,,0,0,,,M,,M,,*4F
$GPGSA,A,1,,,,,,,,,,,,,,,*1E
$GPGSV,1,1,01,13,,,36*7F
$GPRMC,090612.092,V,,,,,0.00,0.00,260515,,,N*4F
$GPGGA,090613.092,,,,,0,0,,,M,,M,,*4E
$GPGSA,A,1,,,,,,,,,,,,,,,*1E
$GPGSV,1,1,01,13,,,36*7F
$GPRMC,090613.092,V,,,,,0.00,0.00,260515,,,N*4E
$GPGGA,090614.092,,,,,0,0,,,M,,M,,*49
$GPGSA,A,1,,,,,,,,,,,,,,,*1E
$GPGSV,1,1,01,13,,,36*7F
$GPRMC,090614.092,V,,,,,0.00,0.00,260515,,,N*49
$GPGGA,090615.092,,,,,0,0,,,M,,M,,*48
$GPGSA,A,1,,,,,,,,,,,,,,,*1E
$GPGSV,1,1,01,13,,,36*7F
$GPRMC,090615.092,V,,,,,0.00,0.00,260515,,,N*48
$GPGGA,090616.092,,,,,0,0,,,M,,M,,*4B
$GPGSA,A,1,,,,,,,,,,,,,,,*1E
$GPGSV,1,1,01,13,,,36*7F
$GPRMC,090616.092,V,,,,,0.00,0.00,260515,,,N*4B
$GPGGA,090617.092,,,,,0,0,,,M,,M,,*4A
$GPGSA,A,1,,,,,,,,,,,,,,,*1E
$GPGSV,1,1,01,13,,,36*7F
$GPRMC,090617.092,V,,,,,0.00,0.00,260515,,,N*4A
$GPGGA,090618.092,,,,,0,0,,,M,,M,,*45
$GPGSA,A,1,,,,,,,,,,,,,,,*1E
$GPGSV,1,1,01,13,,,36*7F
$GPRMC,090618.092,V,,,,,0.00,0.00,260515,,,N*45
