$GPGGA,065830.000,2109.5263,N,07247.0864,E,1,6,1.33,97.6,M,-61.3,M,,*46
$GPGSA,A,3,07,30,10,28,09,23,,,,,,,1.64,1.33,0.96*08
$GPGSV,4,1,13,09,82,174,19,23,49,148,19,07,46,351,17,19,44,070,*75
$GPGSV,4,2,13,28,34,253,27,30,29,316,26,10,24,262,16,11,24,136,*7D
$GPGSV,4,3,13,27,20,045,,04,08,123,,01,07,148,,03,05,174,*79
$GPGSV,4,4,13,193,,,*40
$GPRMC,065830.000,A,2109.5263,N,07247.0864,E,1.13,271.58,240515,,,A*6F
$GPGGA,065831.000,2109.5265,N,07247.0863,E,1,6,1.33,97.5,M,-61.3,M,,*45
$GPGSA,A,3,07,30,10,28,09,23,,,,,,,1.64,1.33,0.96*08
$GPGSV,4,1,13,09,82,174,19,23,49,148,19,07,46,351,16,19,44,070,*74
$GPGSV,4,2,13,28,34,253,27,30,29,316,25,10,24,262,15,11,24,136,*7D
$GPGSV,4,3,13,27,20,045,,04,08,123,,01,07,148,,03,05,174,*79
$GPGSV,4,4,13,193,,,*40
$GPRMC,065831.000,A,2109.5265,N,07247.0863,E,1.07,280.09,240515,,,A*60
$GPGGA,065832.000,2109.5266,N,07247.0860,E,1,6,1.33,97.4,M,-61.3,M,,*47
$GPGSA,A,3,07,30,10,28,09,23,,,,,,,1.64,1.33,0.96*08
$GPGSV,4,1,13,09,82,174,20,23,49,148,18,07,46,351,16,19,44,070,*7F
$GPGSV,4,2,13,28,34,253,27,30,29,316,17,10,24,262,16,11,24,136,*7F
$GPGSV,4,3,13,27,20,045,,04,08,123,,01,07,148,,03,05,174,*79
$GPGSV,4,4,13,193,,,*40
$GPRMC,065832.000,A,2109.5266,N,07247.0860,E,1.08,281.69,240515,,,A*6B
$GPGGA,065833.000,2109.5266,N,07247.0856,E,1,6,1.33,97.3,M,-61.3,M,,*44
$GPGSA,A,3,07,30,10,28,09,23,,,,,,,1.64,1.33,0.96*08
$GPGSV,4,1,13,09,82,174,20,23,49,148,18,07,46,351,15,19,44,070,*7C
$GPGSV,4,2,13,28,34,253,27,30,29,316,18,10,24,262,17,11,24,136,*71
$GPGSV,4,3,13,27,20,045,,04,08,123,,01,07,148,,03,05,174,*79
$GPGSV,4,4,13,193,,,*40
$GPRMC,065833.000,A,2109.5266,N,07247.0856,E,1.33,280.62,240515,,,A*6D
$GPGGA,065834.000,2109.5266,N,07247.0854,E,1,6,1.33,97.3,M,-61.3,M,,*41
$GPGSA,A,3,07,30,10,28,09,23,,,,,,,1.64,1.33,0.96*08
$GPGSV,4,1,13,09,82,174,20,23,49,148,18,07,46,351,15,19,44,070,*7C
$GPGSV,4,2,13,28,34,253,27,30,29,316,20,10,24,262,17,11,24,136,*7A
$GPGSV,4,3,13,27,20,045,,04,08,123,,01,07,148,,03,05,174,*79
$GPGSV,4,4,13,193,,,*40
$GPRMC,065834.000,A,2109.5266,N,07247.0854,E,1.36,279.89,240515,,,A*6E
$GPGGA,065835.000,2109.5267,N,07247.0850,E,1,6,1.33,97.2,M,-61.3,M,,*44
$GPGSA,A,3,07,30,10,28,09,23,,,,,,,1.64,1.33,0.96*08
$GPGSV,4,1,13,09,82,174,20,23,49,148,18,07,46,351,15,19,44,069,*74
$GPGSV,4,2,13,28,34,253,27,30,29,316,22,10,24,262,17,11,24,136,*78
$GPGSV,4,3,13,27,20,045,,04,08,123,,01,07,148,,03,05,174,*79
$GPGSV,4,4,13,193,,,*40
$GPRMC,065835.000,A,2109.5267,N,07247.0850,E,1.41,277.52,240515,,,A*62
$GPGGA,065836.000,2109.5275,N,07247.0847,E,1,6,1.33,97.2,M,-61.3,M,,*42
$GPGSA,A,3,07,30,10,28,09,23,,,,,,,1.64,1.33,0.96*08
$GPGSV,4,1,13,09,82,174,21,23,49,148,18,07,46,351,15,19,44,069,*75
$GPGSV,4,2,13,28,34,253,27,30,29,316,24,10,24,262,17,11,24,136,*7E
$GPGSV,4,3,13,27,20,045,,04,08,123,,01,07,148,,03,05,174,*79
$GPGSV,4,4,13,193,,,*40
$GPRMC,065836.000,A,2109.5275,N,07247.0847,E,1.38,292.01,240515,,,A*67
$GPGGA,065837.000,2109.5277,N,07247.0845,E,1,6,1.33,97.1,M,-61.3,M,,*40
$GPGSA,A,3,07,30,10,28,09,23,,,,,,,1.64,1.33,0.96*08
$GPGSV,4,1,13,09,82,174,21,23,49,148,18,07,46,351,15,19,44,069,*75
$GPGSV,4,2,13,28,34,253,27,30,29,316,24,10,24,262,17,11,24,136,*7E
$GPGSV,4,3,13,27,20,045,,04,08,123,,01,07,148,,03,05,174,*79
$GPGSV,4,4,13,193,,,*40
$GPRMC,065837.000,A,2109.5277,N,07247.0845,E,1.16,288.87,240515,,,A*6F
$GPGGA,065838.000,2109.5279,N,07247.0843,E,1,6,1.33,97.1,M,-61.3,M,,*47
$GPGSA,A,3,07,30,10,28,09,23,,,,,,,1.64,1.33,0.96*08
$GPGSV,4,1,13,09,82,174,21,23,49,148,18,07,46,351,14,19,44,069,*74
$GPGSV,4,2,13,28,34,253,28,30,29,316,25,10,24,262,17,11,24,136,*70
$GPGSV,4,3,13,27,20,045,,04,08,123,,01,07,148,,03,05,174,*79
$GPGSV,4,4,13,193,,,*40
$GPRMC,065838.000,A,2109.5279,N,07247.0843,E,0.93,261.50,240515,,,A*69
$GPGGA,065839.000,2109.5281,N,07247.0840,E,1,6,1.33,96.9,M,-61.3,M,,*4B
$GPGSA,A,3,07,30,10,28,09,23,,,,,,,1.64,1.33,0.96*08
$GPGSV,4,1,13,09,82,174,21,23,48,148,18,07,46,351,16,19,44,069,*77
$GPGSV,4,2,13,28,34,253,28,30,29,316,26,10,24,262,16,11,24,136,*72
$GPGSV,4,3,13,27,20,045,,04,08,123,,01,07,148,,03,05,174,*79
$GPGSV,4,4,13,193,,,*40
$GPRMC,065839.000,A,2109.5281,N,07247.0840,E,1.42,262.05,240515,,,A*62
$GPGGA,065840.000,2109.5282,N,07247.0836,E,1,6,1.33,96.8,M,-61.3,M,,*46
$GPGSA,A,3,07,30,10,28,09,23,,,,,,,1.64,1.33,0.96*08
$GPGSV,4,1,13,09,82,174,20,23,48,148,19,07,46,351,15,19,44,069,*74
$GPGSV,4,2,13,28,34,253,28,30,29,316,26,10,24,262,15,11,24,136,*71
$GPGSV,4,3,13,27,20,045,,04,08,123,,01,07,148,,03,05,174,*79
$GPGSV,4,4,13,193,,,*40
$GPRMC,065840.000,A,2109.5282,N,07247.0836,E,1.76,262.93,240515,,,A*66
$GPGGA,065841.000,2109.5281,N,07247.0837,E,1,6,1.33,96.8,M,-61.3,M,,*45
$GPGSA,A,3,07,30,10,28,09,23,,,,,,,1.64,1.33,0.96*08
$GPGSV,4,1,13,09,82,174,20,23,48,148,19,07,46,351,14,19,44,069,*75
$GPGSV,4,2,13,28,34,253,27,30,29,316,25,10,24,262,14,11,24,136,*7C
$GPGSV,4,3,13,27,20,045,,04,08,123,,01,07,148,,03,05,174,*79
$GPGSV,4,4,13,193,,,*40
$GPRMC,065841.000,A,2109.5281,N,07247.0837,E,1.28,251.22,240515,,,A*64
$GPGGA,065842.000,2109.5281,N,07247.0835,E,1,6,1.33,96.7,M,-61.3,M,,*4B
$GPGSA,A,3,07,30,10,28,09,23,,,,,,,1.64,1.33,0.96*08
$GPGSV,4,1,13,09,82,174,20,23,48,148,19,07,46,351,14,19,44,069,*75
$GPGSV,4,2,13,28,34,253,27,30,29,316,25,10,24,262,13,11,24,136,*7B
$GPGSV,4,3,13,27,20,045,,04,08,123,,01,07,148,,03,05,174,*79
$GPGSV,4,4,13,193,,,*40
$GPRMC,065842.000,A,2109.5281,N,07247.0835,E,1.23,252.32,240515,,,A*6C

$GPGGA,065843.000,2109.5282,N,07247.0832,E,1,6,1.33,96.7,M,-61.3,M,,*4E
$GPGSA,A,3,07,30,10,28,09,23,,,,,,,1.64,1.33,0.96*08
$GPGSV,4,1,13,09,82,174,19,23,48,148,18,07,46,351,16,19,44,069,*7C
$GPGSV,4,2,13,28,34,253,27,30,29,316,25,10,24,262,15,11,24,136,*7D
$GPGSV,4,3,13,27,20,045,,04,08,123,,01,07,148,,03,05,174,*79
$GPGSV,4,4,13,193,,,*40
$GPRMC,065843.000,A,2109.5282,N,07247.0832,E,1.21,253.35,240515,,,A*6D

$GPGGA,065900.000,2109.5295,N,07247.0837,E,1,6,1.32,96.1,M,-61.3,M,,*4C
$GPGSA,A,3,07,30,10,28,09,23,,,,,,,1.64,1.32,0.96*09
$GPGSV,4,1,14,09,81,174,18,23,48,148,19,07,46,352,17,19,44,069,*7A
$GPGSV,4,2,14,28,35,253,27,30,29,317,24,10,24,262,15,11,24,136,*7B
$GPGSV,4,3,14,27,20,045,15,04,08,123,,01,07,148,,03,04,174,*7B
$GPGSV,4,4,14,193,,,,41,,,*42
$GPRMC,065900.000,A,2109.5295,N,07247.0837,E,1.35,296.23,240515,,,A*63